[

    {
        "ID": 95704,
        "Image": "stop_sign_medium.gif",
        "Latitude": 28.065656,
        "Longitude": -82.411269,
        "Name": "Holly Mail Room",
        "RtpiNumber": 421,
        "ShowLabel": false,
        "ShowStopRtpiNumberLabel": false,
        "ShowVehicleName": false
    },
    {
        "ID": 95706,
        "Image": "stop_sign_medium.gif",
        "Latitude": 28.065666,
        "Longitude": -82.409483000000023,
        "Name": "Maple Suites at Holly",
        "RtpiNumber": 425,
        "ShowLabel": false,
        "ShowStopRtpiNumberLabel": false,
        "ShowVehicleName": false
    },
    {
        "ID": 95524,
        "Image": "stop_sign.gif",
        "Latitude": 28.067751,
        "Longitude": -82.407601,
        "Name": "Greek Housing",
        "RtpiNumber": 432,
        "ShowLabel": false,
        "ShowStopRtpiNumberLabel": false,
        "ShowVehicleName": false
    },
    {
        "ID": 95529,
        "Image": "stop_sign.gif",
        "Latitude": 28.066647,
        "Longitude": -82.40803,
        "Name": "Cypress Apartments",
        "RtpiNumber": 430,
        "ShowLabel": false,
        "ShowStopRtpiNumberLabel": false,
        "ShowVehicleName": false
    },
    {
        "ID": 95851,
        "Image": "stop_sign_medium.gif",
        "Latitude": 28.065637,
        "Longitude": -82.407396,
        "Name": "Lot 35",
        "RtpiNumber": 445,
        "ShowLabel": false,
        "ShowStopRtpiNumberLabel": false,
        "ShowVehicleName": false
    },
    {
        "ID": 95856,
        "Image": "stop_sign_medium.gif",
        "Latitude": 28.0656,
        "Longitude": -82.402825,
        "Name": "Park and Ride Lot 18 at Par Course",
        "RtpiNumber": 151,
        "ShowLabel": false,
        "ShowStopRtpiNumberLabel": false,
        "ShowVehicleName": false
    },
    {
        "ID": 95860,
        "Image": "stop_sign_medium.gif",
        "Latitude": 28.063545,
        "Longitude": -82.40282000000002,
        "Name": "Park and Ride Lot 18 at Softball Fields",
        "RtpiNumber": 155,
        "ShowLabel": false,
        "ShowStopRtpiNumberLabel": false,
        "ShowVehicleName": false
    },
    {
        "ID": 95865,
        "Image": "stop_sign_medium.gif",
        "Latitude": 28.059886,
        "Longitude": -82.40276799999998,
        "Name": "Park and Ride Lot 18 at Soccer Fields",
        "RtpiNumber": 157,
        "ShowLabel": false,
        "ShowStopRtpiNumberLabel": false,
        "ShowVehicleName": false
    },
    {
        "ID": 95867,
        "Image": "stop_sign_medium.gif",
        "Latitude": 28.059788,
        "Longitude": -82.404537,
        "Name": "Lee Roy Selmon Athletics Center ",
        "RtpiNumber": 161,
        "ShowLabel": false,
        "ShowStopRtpiNumberLabel": false,
        "ShowVehicleName": false
    },
    {
        "ID": 95873,
        "Image": "stop_sign_medium.gif",
        "Latitude": 28.057618,
        "Longitude": -82.405466999999987,
        "Name": "Sun Dome East",
        "RtpiNumber": 165,
        "ShowLabel": false,
        "ShowStopRtpiNumberLabel": false,
        "ShowVehicleName": false
    },
    {
        "ID": 95727,
        "Image": "stop_sign_medium.gif",
        "Latitude": 28.0573,
        "Longitude": -82.409642000000019,
        "Name": "Business North",
        "RtpiNumber": 129,
        "ShowLabel": false,
        "ShowStopRtpiNumberLabel": false,
        "ShowVehicleName": false
    },
    {
        "ID": 95345,
        "Image": "stop_sign.gif",
        "Latitude": 28.059207,
        "Longitude": -82.413011999999981,
        "Name": "Library LIB",
        "RtpiNumber": 102,
        "ShowLabel": false,
        "ShowStopRtpiNumberLabel": false,
        "ShowVehicleName": false
    },
    {
        "ID": 95349,
        "Image": "stop_sign.gif",
        "Latitude": 28.059175,
        "Longitude": -82.413420999999971,
        "Name": "Math & Engineering ",
        "RtpiNumber": 101,
        "ShowLabel": false,
        "ShowStopRtpiNumberLabel": false,
        "ShowVehicleName": false
    },
    {
        "ID": 95902,
        "Image": "stop_sign.gif",
        "Latitude": 28.058073,
        "Longitude": -82.416129000000012,
        "Name": "Center for Transportation Research ",
        "RtpiNumber": 203,
        "ShowLabel": false,
        "ShowStopRtpiNumberLabel": false,
        "ShowVehicleName": false
    },
    {
        "ID": 95908,
        "Image": "stop_sign_medium.gif",
        "Latitude": 28.060066,
        "Longitude": -82.417609999999968,
        "Name": "Science Center",
        "RtpiNumber": 209,
        "ShowLabel": false,
        "ShowStopRtpiNumberLabel": false,
        "ShowVehicleName": false
    },
    {
        "ID": 95911,
        "Image": "stop_sign.gif",
        "Latitude": 28.061265,
        "Longitude": -82.419513999999992,
        "Name": "The Lakes",
        "RtpiNumber": 213,
        "ShowLabel": false,
        "ShowStopRtpiNumberLabel": false,
        "ShowVehicleName": false
    },
    {
        "ID": 95920,
        "Image": "stop_sign_medium.gif",
        "Latitude": 28.063848,
        "Longitude": -82.418897000000015,
        "Name": "Psychology Center",
        "RtpiNumber": 221,
        "ShowLabel": false,
        "ShowStopRtpiNumberLabel": false,
        "ShowVehicleName": false
    },
    {
        "ID": 95925,
        "Image": "stop_sign_medium.gif",
        "Latitude": 28.064942,
        "Longitude": -82.418897000000015,
        "Name": "School of Music West",
        "RtpiNumber": 225,
        "ShowLabel": false,
        "ShowStopRtpiNumberLabel": false,
        "ShowVehicleName": false
    },
    {
        "ID": 95626,
        "Image": "stop_sign.gif",
        "Latitude": 28.066063,
        "Longitude": -82.419212000000016,
        "Name": "Morsani Center",
        "RtpiNumber": 312,
        "ShowLabel": false,
        "ShowStopRtpiNumberLabel": false,
        "ShowVehicleName": false
    },
    {
        "ID": 95629,
        "Image": "stop_sign_medium.gif",
        "Latitude": 28.066069,
        "Longitude": -82.420827000000031,
        "Name": "Holly at Magnolia Drive",
        "RtpiNumber": 314,
        "ShowLabel": false,
        "ShowStopRtpiNumberLabel": false,
        "ShowVehicleName": false
    },
    {
        "ID": 1569445,
        "Image": "stop_sign_medium.gif",
        "Latitude": 28.065136,
        "Longitude": -82.423631,
        "Name": "The WELL (Lot 34)",
        "RtpiNumber": 317,
        "ShowLabel": false,
        "ShowStopRtpiNumberLabel": false,
        "ShowVehicleName": false
    },
    {
        "ID": 1569460,
        "Image": "stop_sign_medium.gif",
        "Latitude": 28.06439,
        "Longitude": -82.423772999999983,
        "Name": "College of Nursing",
        "RtpiNumber": 318,
        "ShowLabel": false,
        "ShowStopRtpiNumberLabel": false,
        "ShowVehicleName": false
    },
    {
        "ID": 96175,
        "Image": "stop_sign.gif",
        "Latitude": 28.065985,
        "Longitude": -82.423147999999969,
        "Name": "Holly at USF Health Drive",
        "RtpiNumber": 315,
        "ShowLabel": false,
        "ShowStopRtpiNumberLabel": false,
        "ShowVehicleName": false
    },
    {
        "ID": 96177,
        "Image": "stop_sign_medium.gif",
        "Latitude": 28.065974,
        "Longitude": -82.420822999999984,
        "Name": "Moffitt Tower",
        "RtpiNumber": 313,
        "ShowLabel": false,
        "ShowStopRtpiNumberLabel": false,
        "ShowVehicleName": false
    },
    {
        "ID": 96179,
        "Image": "stop_sign_medium.gif",
        "Latitude": 28.065997,
        "Longitude": -82.419120000000021,
        "Name": "Moffit Research",
        "RtpiNumber": 311,
        "ShowLabel": false,
        "ShowStopRtpiNumberLabel": false,
        "ShowVehicleName": false
    },
    {
        "ID": 231768,
        "Image": "stop_sign_medium.gif",
        "Latitude": 28.066385,
        "Longitude": -82.417646999999988,
        "Name": "Bull Runner Office",
        "RtpiNumber": 325,
        "ShowLabel": false,
        "ShowStopRtpiNumberLabel": false,
        "ShowVehicleName": false
    },
    {
        "ID": 95942,
        "Image": "stop_sign_medium.gif",
        "Latitude": 28.067794,
        "Longitude": -82.416430999999989,
        "Name": "Park and Ride Lot 43 to Marshall Center",
        "RtpiNumber": 327,
        "ShowLabel": false,
        "ShowStopRtpiNumberLabel": false,
        "ShowVehicleName": false
    },
    {
        "ID": 95945,
        "Image": "stop_sign.gif",
        "Latitude": 28.067653,
        "Longitude": -82.414853999999991,
        "Name": "Lot 44",
        "RtpiNumber": 329,
        "ShowLabel": false,
        "ShowStopRtpiNumberLabel": false,
        "ShowVehicleName": false
    },
    {
        "ID": 95548,
        "Image": "stop_sign.gif",
        "Latitude": 28.064358,
        "Longitude": -82.413793,
        "Name": "Marshall Student Center",
        "RtpiNumber": 401,
        "ShowLabel": false,
        "ShowStopRtpiNumberLabel": false,
        "ShowVehicleName": false
    }

]